[
  {
    "id": 1,
    "name": "Bernhard, McDermott and Jacobson",
    "address": "96028 Jana Circle",
    "coordinates": [57.6680135, 63.0632053]
  },
  {
    "id": 2,
    "name": "O'Keefe-Monahan",
    "address": "4756 Portage Lane",
    "coordinates": [-3.6988282, -42.5901672]
  },
  {
    "id": 3,
    "name": "Gleason, Feeney and Hilpert",
    "address": "18859 Forest Run Circle",
    "coordinates": [33.7754716, 10.9580947]
  },
  {
    "id": 4,
    "name": "Corkery-Kulas",
    "address": "545 Spenser Alley",
    "coordinates": [25.0493618, 116.4374738]
  },
  {
    "id": 5,
    "name": "Keeling-Goodwin",
    "address": "82 Leroy Point",
    "coordinates": [10.3719544, 123.9153917]
  },
  {
    "id": 6,
    "name": "Sanford LLC",
    "address": "89126 Surrey Place",
    "coordinates": [2.100305, 101.642899]
  },
  {
    "id": 7,
    "name": "Krajcik-Marks",
    "address": "331 Londonderry Junction",
    "coordinates": [57.2729741, 13.7943986]
  },
  {
    "id": 8,
    "name": "Beer-Morar",
    "address": "546 La Follette Junction",
    "coordinates": [52.6863286, 5.7569797]
  },
  {
    "id": 9,
    "name": "Renner-Bauch",
    "address": "672 Brown Plaza",
    "coordinates": [46.8700877, 43.0650548]
  },
  {
    "id": 10,
    "name": "Buckridge Inc",
    "address": "92338 Larry Plaza",
    "coordinates": [-8.5298984, 115.5074108]
  },
  {
    "id": 11,
    "name": "Jerde, Herzog and Treutel",
    "address": "27 Sage Junction",
    "coordinates": [49.1698106, 6.1200844]
  },
  {
    "id": 12,
    "name": "Weber LLC",
    "address": "45 Fair Oaks Court",
    "coordinates": [51.4188047, 6.9643749]
  },
  {
    "id": 13,
    "name": "Purdy-Goodwin",
    "address": "954 Beilfuss Terrace",
    "coordinates": [10.5083266, 106.8635004]
  },
  {
    "id": 14,
    "name": "Terry, Legros and Cole",
    "address": "4 Fisk Trail",
    "coordinates": [15.3954121, -88.0534236]
  },
  {
    "id": 15,
    "name": "Keebler-Doyle",
    "address": "075 Shelley Center",
    "coordinates": [51.5076941, 18.1208003]
  },
  {
    "id": 16,
    "name": "Howell, Sipes and Kling",
    "address": "9015 Bashford Crossing",
    "coordinates": [-7.9868869, 113.7513827]
  },
  {
    "id": 17,
    "name": "Wolf Group",
    "address": "88923 Rowland Place",
    "coordinates": [5.21667, 96.28333]
  },
  {
    "id": 18,
    "name": "Stokes and Sons",
    "address": "219 Spenser Circle",
    "coordinates": [41.2053857, 44.2309162]
  },
  {
    "id": 19,
    "name": "Stracke and Sons",
    "address": "34 Laurel Crossing",
    "coordinates": [39.6582667, 122.5226215]
  },
  {
    "id": 20,
    "name": "Veum-Schmidt",
    "address": "4813 Mcguire Circle",
    "coordinates": [50.9575733, 15.7384571]
  },
  {
    "id": 21,
    "name": "Smitham, Rice and Bogan",
    "address": "4 Mayfield Junction",
    "coordinates": [8.1142739, 123.9026495]
  },
  {
    "id": 22,
    "name": "Labadie, Hagenes and Shanahan",
    "address": "6115 Roth Plaza",
    "coordinates": [-7.3440911, 107.9917034]
  },
  {
    "id": 23,
    "name": "Greenfelder, D'Amore and Stehr",
    "address": "63727 Mendota Terrace",
    "coordinates": [2.6087182, 96.1686077]
  },
  {
    "id": 24,
    "name": "Marks LLC",
    "address": "7770 1st Terrace",
    "coordinates": [13.6055178, 100.3796676]
  },
  {
    "id": 25,
    "name": "King Group",
    "address": "90 Old Shore Point",
    "coordinates": [35.84917, 14.50306]
  },
  {
    "id": 26,
    "name": "Kutch and Sons",
    "address": "1918 Pond Avenue",
    "coordinates": [-8.2538887, 112.166867]
  },
  {
    "id": 27,
    "name": "Parker, Conn and Douglas",
    "address": "467 Warbler Crossing",
    "coordinates": [51.9956496, 70.9359277]
  },
  {
    "id": 28,
    "name": "McClure-Stokes",
    "address": "78 Merry Lane",
    "coordinates": [11.2220458, 12.0234318]
  },
  {
    "id": 29,
    "name": "Streich, Bruen and Muller",
    "address": "5301 Esker Terrace",
    "coordinates": [-7.9673906, 113.9060624]
  },
  {
    "id": 30,
    "name": "Bailey Inc",
    "address": "04101 Thierer Terrace",
    "coordinates": [-13.5338933, -75.314433]
  },
  {
    "id": 31,
    "name": "Skiles-Zulauf",
    "address": "9381 Becker Pass",
    "coordinates": [-6.97, 113.2718]
  },
  {
    "id": 32,
    "name": "Wehner LLC",
    "address": "83 Transport Trail",
    "coordinates": [37.233266, 122.456824]
  },
  {
    "id": 33,
    "name": "Daniel Group",
    "address": "1 Summer Ridge Park",
    "coordinates": [45.7593122, 4.969422]
  },
  {
    "id": 34,
    "name": "Nicolas and Sons",
    "address": "2240 Old Shore Way",
    "coordinates": [25.8749206, 116.0386902]
  },
  {
    "id": 35,
    "name": "Mills Group",
    "address": "978 Iowa Way",
    "coordinates": [9.2214675, 122.8845373]
  },
  {
    "id": 36,
    "name": "Powlowski Group",
    "address": "6 Pennsylvania Point",
    "coordinates": [32.4438, 35.20184]
  },
  {
    "id": 37,
    "name": "Ziemann and Sons",
    "address": "27465 Forest Dale Trail",
    "coordinates": [38.8802788, -7.1636637]
  },
  {
    "id": 38,
    "name": "Wolff Inc",
    "address": "51635 Anderson Street",
    "coordinates": [50.3473476, 15.9014886]
  },
  {
    "id": 39,
    "name": "Jacobi LLC",
    "address": "2014 Fuller Crossing",
    "coordinates": [27.456658, 112.175245]
  },
  {
    "id": 40,
    "name": "Hilpert, Swift and Lehner",
    "address": "777 Crownhardt Place",
    "coordinates": [43.656554, 145.118845]
  },
  {
    "id": 41,
    "name": "Huels-Goyette",
    "address": "54 Southridge Way",
    "coordinates": [-17.4850319, 16.3287199]
  },
  {
    "id": 42,
    "name": "Prosacco LLC",
    "address": "10895 Sutteridge Lane",
    "coordinates": [-7.3276166, 112.7137227]
  },
  {
    "id": 43,
    "name": "Dickens, Howe and Douglas",
    "address": "8630 Bunker Hill Way",
    "coordinates": [55.859897, 13.6699417]
  },
  {
    "id": 44,
    "name": "Donnelly-Schneider",
    "address": "57991 Spenser Trail",
    "coordinates": [6.3324473, 7.605638]
  },
  {
    "id": 45,
    "name": "Keebler Inc",
    "address": "2570 Maple Wood Alley",
    "coordinates": [41.9623047, 101.0745036]
  },
  {
    "id": 46,
    "name": "Shields-Kub",
    "address": "791 Maple Court",
    "coordinates": [38.2, -85.7]
  },
  {
    "id": 47,
    "name": "Metz-O'Connell",
    "address": "32549 Kropf Pass",
    "coordinates": [-12.2324162, 44.4806961]
  },
  {
    "id": 48,
    "name": "Runolfsdottir-Daugherty",
    "address": "43 Eastwood Road",
    "coordinates": [27.948308, 109.599191]
  },
  {
    "id": 49,
    "name": "Lang-Trantow",
    "address": "7990 Meadow Valley Pass",
    "coordinates": [45.9120061, 6.1549499]
  },
  {
    "id": 50,
    "name": "Conroy-Kovacek",
    "address": "8 Glendale Parkway",
    "coordinates": [24.777412, 108.904706]
  },
  {
    "id": 51,
    "name": "MacGyver Group",
    "address": "59696 Dottie Plaza",
    "coordinates": [35.490701, 112.851831]
  },
  {
    "id": 52,
    "name": "Jakubowski-Borer",
    "address": "4 Clemons Point",
    "coordinates": [22.806457, 114.073302]
  },
  {
    "id": 53,
    "name": "Prohaska Inc",
    "address": "8 Redwing Terrace",
    "coordinates": [30.555665, 91.160508]
  },
  {
    "id": 54,
    "name": "Johnson Inc",
    "address": "034 Eliot Point",
    "coordinates": [7.2484596, 125.0587505]
  },
  {
    "id": 55,
    "name": "Dach LLC",
    "address": "063 Knutson Alley",
    "coordinates": [-31.43337, -64.2142976]
  },
  {
    "id": 56,
    "name": "McGlynn, Schiller and Koch",
    "address": "97092 Basil Alley",
    "coordinates": [32.19828, 119.47016]
  },
  {
    "id": 57,
    "name": "Quitzon, Treutel and Lebsack",
    "address": "5 Manitowish Drive",
    "coordinates": [30.335237, 112.239631]
  },
  {
    "id": 58,
    "name": "Conn Inc",
    "address": "35167 Independence Junction",
    "coordinates": [5.990033, 120.953061]
  },
  {
    "id": 59,
    "name": "Breitenberg and Sons",
    "address": "959 Anderson Point",
    "coordinates": [-31.6577222, -60.7829517]
  },
  {
    "id": 60,
    "name": "Murray-Bauch",
    "address": "10787 Golden Leaf Terrace",
    "coordinates": [48.8693156, 2.3501981]
  },
  {
    "id": 61,
    "name": "Roberts-Hahn",
    "address": "837 Oneill Junction",
    "coordinates": [23.883531, 110.666614]
  },
  {
    "id": 62,
    "name": "Shields Inc",
    "address": "70467 Grim Pass",
    "coordinates": [23.07555, 112.007814]
  },
  {
    "id": 63,
    "name": "Predovic-Ferry",
    "address": "60643 Macpherson Circle",
    "coordinates": [14.0790439, 5.956825]
  },
  {
    "id": 64,
    "name": "Rath-Leffler",
    "address": "807 Independence Park",
    "coordinates": [40.8143687, -73.7419017]
  },
  {
    "id": 65,
    "name": "Treutel, Mante and Orn",
    "address": "87438 Lyons Place",
    "coordinates": [14.6611789, 121.0226827]
  },
  {
    "id": 66,
    "name": "Swift, Torp and Miller",
    "address": "92 Sullivan Trail",
    "coordinates": [-5.0979659, 105.3467822]
  },
  {
    "id": 67,
    "name": "O'Hara, Gislason and Donnelly",
    "address": "8723 Old Shore Way",
    "coordinates": [38.4600166, -9.1141307]
  },
  {
    "id": 68,
    "name": "Windler-Hilpert",
    "address": "08 Summerview Crossing",
    "coordinates": [40.4967133, 49.8797117]
  },
  {
    "id": 69,
    "name": "Gutmann Group",
    "address": "67373 Eagle Crest Lane",
    "coordinates": [41.4204087, -8.3676461]
  },
  {
    "id": 70,
    "name": "Stamm, Heller and Pouros",
    "address": "685 Westridge Plaza",
    "coordinates": [21.850061, 111.197459]
  },
  {
    "id": 71,
    "name": "Kuhlman, Reinger and Kris",
    "address": "0392 Talisman Park",
    "coordinates": [23.365556, 116.70345]
  },
  {
    "id": 72,
    "name": "Hodkiewicz, O'Kon and Miller",
    "address": "53 Ramsey Terrace",
    "coordinates": [11.2666664, 122.5333328]
  },
  {
    "id": 73,
    "name": "Dach Inc",
    "address": "118 Miller Park",
    "coordinates": [-1.2607218, 116.1832068]
  },
  {
    "id": 74,
    "name": "Medhurst, Mertz and Quitzon",
    "address": "431 Magdeline Circle",
    "coordinates": [39.488181, 76.723719]
  },
  {
    "id": 75,
    "name": "Haag, Gleichner and Herman",
    "address": "218 Del Sol Court",
    "coordinates": [32.687733, 112.087455]
  },
  {
    "id": 76,
    "name": "Ruecker-Grimes",
    "address": "5 Utah Road",
    "coordinates": [37.5392646, 127.2148919]
  },
  {
    "id": 77,
    "name": "Bogan-Collier",
    "address": "54558 Continental Plaza",
    "coordinates": [55.7133263, 37.8049211]
  },
  {
    "id": 78,
    "name": "Langosh and Sons",
    "address": "60 Glacier Hill Circle",
    "coordinates": [43.1147983, 5.8567016]
  },
  {
    "id": 79,
    "name": "Schinner-Cartwright",
    "address": "31015 Linden Plaza",
    "coordinates": [30.740553, 114.893657]
  },
  {
    "id": 80,
    "name": "Kessler and Sons",
    "address": "92990 Mandrake Pass",
    "coordinates": [-7.8816972, 113.7781575]
  },
  {
    "id": 81,
    "name": "McCullough and Sons",
    "address": "2248 Shopko Point",
    "coordinates": [9.5842063, 8.713707]
  },
  {
    "id": 82,
    "name": "Medhurst, Mayer and Pfannerstill",
    "address": "81186 Mifflin Trail",
    "coordinates": [44.6267383, 135.3522837]
  },
  {
    "id": 83,
    "name": "Runolfsdottir-Reichel",
    "address": "481 Jenna Pass",
    "coordinates": [59.3257396, 14.0908934]
  },
  {
    "id": 84,
    "name": "Cremin-Ullrich",
    "address": "0395 Cherokee Hill",
    "coordinates": [16.1169002, 102.7020218]
  },
  {
    "id": 85,
    "name": "Tremblay, Mohr and Zulauf",
    "address": "8 Jenifer Lane",
    "coordinates": [38.5527205, 69.0138738]
  },
  {
    "id": 86,
    "name": "Mante LLC",
    "address": "77469 Sundown Plaza",
    "coordinates": [44.0738696, 41.9213303]
  },
  {
    "id": 87,
    "name": "Beahan, Weber and Marks",
    "address": "1174 Charing Cross Pass",
    "coordinates": [-21.1291403, -42.3702252]
  },
  {
    "id": 88,
    "name": "Bayer-Bartoletti",
    "address": "3 Iowa Junction",
    "coordinates": [24.965651, 102.591737]
  },
  {
    "id": 89,
    "name": "Hodkiewicz, Flatley and Wolff",
    "address": "496 Dexter Point",
    "coordinates": [13.7931278, 100.4993601]
  },
  {
    "id": 90,
    "name": "Douglas, Schneider and Legros",
    "address": "3503 Gale Street",
    "coordinates": [47.98257, 89.84173]
  },
  {
    "id": 91,
    "name": "Kshlerin Group",
    "address": "841 East Trail",
    "coordinates": [40.3418956, 21.5118754]
  },
  {
    "id": 92,
    "name": "Raynor, Williamson and Reilly",
    "address": "52036 Spenser Circle",
    "coordinates": [41.6465777, -4.7497457]
  },
  {
    "id": 93,
    "name": "Gibson, Ullrich and Heidenreich",
    "address": "98854 Towne Avenue",
    "coordinates": [-8.2017686, 113.5936818]
  },
  {
    "id": 94,
    "name": "Dietrich Group",
    "address": "988 Warner Point",
    "coordinates": [17.228242, 120.6124166]
  },
  {
    "id": 95,
    "name": "Grimes, Schmidt and Nolan",
    "address": "4 Bashford Court",
    "coordinates": [30.0705556, 105.5825]
  },
  {
    "id": 96,
    "name": "Luettgen, Ankunding and Kshlerin",
    "address": "4 Springview Plaza",
    "coordinates": [50.7842909, 44.712888]
  },
  {
    "id": 97,
    "name": "Keebler Inc",
    "address": "5 Bobwhite Parkway",
    "coordinates": [28.109598, 116.527871]
  },
  {
    "id": 98,
    "name": "Schuppe-Christiansen",
    "address": "67 Forest Avenue",
    "coordinates": [43.1839958, 16.5992505]
  },
  {
    "id": 99,
    "name": "Lindgren-Goldner",
    "address": "18 Center Road",
    "coordinates": [-11.9417972, -76.9970692]
  },
  {
    "id": 100,
    "name": "Von-Dach",
    "address": "252 Vermont Hill",
    "coordinates": [28.262375, 109.698015]
  }
]
